[
  {
    "address": "Chatham Street", 
    "banking": 0, 
    "bike_stands": 29, 
    "bonus": 0, 
    "contract_name": "Dublin", 
    "lat": "53.340962", 
    "lng": "-6.262287", 
    "name": "CHATHAM STREET", 
    "station": 1
  }, 
  {
    "address": "Blessington Street", 
    "banking": 1, 
    "bike_stands": 20, 
    "bonus": 0, 
    "contract_name": "Dublin", 
    "lat": "53.356769", 
    "lng": "-6.268140", 
    "name": "BLESSINGTON STREET", 
    "station": 2
  }, 
  {
    "address": "Bolton Street", 
    "banking": 0, 
    "bike_stands": 20, 
    "bonus": 0, 
    "contract_name": "Dublin", 
    "lat": "53.351182", 
    "lng": "-6.269859", 
    "name": "BOLTON STREET", 
    "station": 3
  }, 
  {
    "address": "Greek Street", 
    "banking": 0, 
    "bike_stands": 20, 
    "bonus": 0, 
    "contract_name": "Dublin", 
    "lat": "53.346874", 
    "lng": "-6.272976", 
    "name": "GREEK STREET", 
    "station": 4
  }, 
  {
    "address": "Charlemont Street", 
    "banking": 0, 
    "bike_stands": 40, 
    "bonus": 0, 
    "contract_name": "Dublin", 
    "lat": "53.330662", 
    "lng": "-6.260177", 
    "name": "CHARLEMONT PLACE", 
    "station": 5
  }, 
  {
    "address": "Christchurch Place", 
    "banking": 0, 
    "bike_stands": 20, 
    "bonus": 0, 
    "contract_name": "Dublin", 
    "lat": "53.343368", 
    "lng": "-6.270120", 
    "name": "CHRISTCHURCH PLACE", 
    "station": 6
  }, 
  {
    "address": "High Street", 
    "banking": 1, 
    "bike_stands": 29, 
    "bonus": 0, 
    "contract_name": "Dublin", 
    "lat": "53.343565", 
    "lng": "-6.275071", 
    "name": "HIGH STREET", 
    "station": 7
  }, 
  {
    "address": "Custom House Quay", 
    "banking": 0, 
    "bike_stands": 30, 
    "bonus": 0, 
    "contract_name": "Dublin", 
    "lat": "53.347884", 
    "lng": "-6.248048", 
    "name": "CUSTOM HOUSE QUAY", 
    "station": 8
  }, 
  {
    "address": "Exchequer Street", 
    "banking": 0, 
    "bike_stands": 24, 
    "bonus": 0, 
    "contract_name": "Dublin", 
    "lat": "53.343034", 
    "lng": "-6.263578", 
    "name": "EXCHEQUER STREET", 
    "station": 9
  }, 
  {
    "address": "Dame Street", 
    "banking": 1, 
    "bike_stands": 16, 
    "bonus": 0, 
    "contract_name": "Dublin", 
    "lat": "53.344007", 
    "lng": "-6.266802", 
    "name": "DAME STREET", 
    "station": 10
  }, 
  {
    "address": "Earlsfort Terrace", 
    "banking": 0, 
    "bike_stands": 30, 
    "bonus": 0, 
    "contract_name": "Dublin", 
    "lat": "53.334019", 
    "lng": "-6.258371", 
    "name": "EARLSFORT TERRACE", 
    "station": 11
  }, 
  {
    "address": "Eccles Street", 
    "banking": 0, 
    "bike_stands": 20, 
    "bonus": 0, 
    "contract_name": "Dublin", 
    "lat": "53.359246", 
    "lng": "-6.269779", 
    "name": "ECCLES STREET", 
    "station": 12
  }, 
  {
    "address": "Fitzwilliam Square West", 
    "banking": 0, 
    "bike_stands": 30, 
    "bonus": 0, 
    "contract_name": "Dublin", 
    "lat": "53.336074", 
    "lng": "-6.252825", 
    "name": "FITZWILLIAM SQUARE WEST", 
    "station": 13
  }, 
  {
    "address": "Fownes Street Upper", 
    "banking": 0, 
    "bike_stands": 30, 
    "bonus": 0, 
    "contract_name": "Dublin", 
    "lat": "53.344603", 
    "lng": "-6.263371", 
    "name": "FOWNES STREET UPPER", 
    "station": 14
  }, 
  {
    "address": "Hardwicke Street", 
    "banking": 0, 
    "bike_stands": 16, 
    "bonus": 0, 
    "contract_name": "Dublin", 
    "lat": "53.355473", 
    "lng": "-6.264423", 
    "name": "HARDWICKE STREET", 
    "station": 15
  }, 
  {
    "address": "Georges Quay", 
    "banking": 0, 
    "bike_stands": 20, 
    "bonus": 0, 
    "contract_name": "Dublin", 
    "lat": "53.347508", 
    "lng": "-6.252192", 
    "name": "GEORGES QUAY", 
    "station": 16
  }, 
  {
    "address": "Golden Lane", 
    "banking": 0, 
    "bike_stands": 20, 
    "bonus": 0, 
    "contract_name": "Dublin", 
    "lat": "53.340803", 
    "lng": "-6.267732", 
    "name": "GOLDEN LANE", 
    "station": 17
  }, 
  {
    "address": "Grantham Street", 
    "banking": 1, 
    "bike_stands": 30, 
    "bonus": 0, 
    "contract_name": "Dublin", 
    "lat": "53.334123", 
    "lng": "-6.265436", 
    "name": "GRANTHAM STREET", 
    "station": 18
  }, 
  {
    "address": "Herbert Place", 
    "banking": 0, 
    "bike_stands": 30, 
    "bonus": 0, 
    "contract_name": "Dublin", 
    "lat": "53.334432", 
    "lng": "-6.245575", 
    "name": "HERBERT PLACE", 
    "station": 19
  }, 
  {
    "address": "James Street East", 
    "banking": 0, 
    "bike_stands": 30, 
    "bonus": 0, 
    "contract_name": "Dublin", 
    "lat": "53.336485", 
    "lng": "-6.248174", 
    "name": "JAMES STREET EAST", 
    "station": 20
  }, 
  {
    "address": "Leinster Street South", 
    "banking": 0, 
    "bike_stands": 30, 
    "bonus": 0, 
    "contract_name": "Dublin", 
    "lat": "53.342180", 
    "lng": "-6.254485", 
    "name": "LEINSTER STREET SOUTH", 
    "station": 21
  }, 
  {
    "address": "Townsend Street", 
    "banking": 0, 
    "bike_stands": 20, 
    "bonus": 0, 
    "contract_name": "Dublin", 
    "lat": "53.345922", 
    "lng": "-6.254614", 
    "name": "TOWNSEND STREET", 
    "station": 22
  }, 
  {
    "address": "Custom House", 
    "banking": 1, 
    "bike_stands": 30, 
    "bonus": 0, 
    "contract_name": "Dublin", 
    "lat": "53.348279", 
    "lng": "-6.254662", 
    "name": "CUSTOM HOUSE", 
    "station": 23
  }, 
  {
    "address": "Cathal Brugha Street", 
    "banking": 0, 
    "bike_stands": 20, 
    "bonus": 0, 
    "contract_name": "Dublin", 
    "lat": "53.352149", 
    "lng": "-6.260533", 
    "name": "CATHAL BRUGHA STREET", 
    "station": 24
  }, 
  {
    "address": "Merrion Square East", 
    "banking": 0, 
    "bike_stands": 30, 
    "bonus": 0, 
    "contract_name": "Dublin", 
    "lat": "53.339434", 
    "lng": "-6.246548", 
    "name": "MERRION SQUARE EAST", 
    "station": 25
  }, 
  {
    "address": "Merrion Square West", 
    "banking": 1, 
    "bike_stands": 20, 
    "bonus": 0, 
    "contract_name": "Dublin", 
    "lat": "53.339764", 
    "lng": "-6.251988", 
    "name": "MERRION SQUARE WEST", 
    "station": 26
  }, 
  {
    "address": "Molesworth Street", 
    "banking": 0, 
    "bike_stands": 20, 
    "bonus": 0, 
    "contract_name": "Dublin", 
    "lat": "53.341288", 
    "lng": "-6.258117", 
    "name": "MOLESWORTH STREET", 
    "station": 27
  }, 
  {
    "address": "Mountjoy Square West", 
    "banking": 0, 
    "bike_stands": 30, 
    "bonus": 0, 
    "contract_name": "Dublin", 
    "lat": "53.356299", 
    "lng": "-6.258586", 
    "name": "MOUNTJOY SQUARE WEST", 
    "station": 28
  }, 
  {
    "address": "Ormond Quay Upper", 
    "banking": 1, 
    "bike_stands": 29, 
    "bonus": 0, 
    "contract_name": "Dublin", 
    "lat": "53.346057", 
    "lng": "-6.268001", 
    "name": "ORMOND QUAY UPPER", 
    "station": 29
  }, 
  {
    "address": "Parnell Square North", 
    "banking": 1, 
    "bike_stands": 20, 
    "bonus": 0, 
    "contract_name": "Dublin", 
    "lat": "53.353462", 
    "lng": "-6.265305", 
    "name": "PARNELL SQUARE NORTH", 
    "station": 30
  }, 
  {
    "address": "Parnell Street", 
    "banking": 0, 
    "bike_stands": 20, 
    "bonus": 0, 
    "contract_name": "Dublin", 
    "lat": "53.350929", 
    "lng": "-6.265125", 
    "name": "PARNELL STREET", 
    "station": 31
  }, 
  {
    "address": "Pearse Street", 
    "banking": 1, 
    "bike_stands": 30, 
    "bonus": 0, 
    "contract_name": "Dublin", 
    "lat": "53.344304", 
    "lng": "-6.250427", 
    "name": "PEARSE STREET", 
    "station": 32
  }, 
  {
    "address": "Princes Street / O'Connell Street", 
    "banking": 1, 
    "bike_stands": 23, 
    "bonus": 0, 
    "contract_name": "Dublin", 
    "lat": "53.349013", 
    "lng": "-6.260311", 
    "name": "PRINCES STREET / O'CONNELL STREET", 
    "station": 33
  }, 
  {
    "address": "Portobello Harbour", 
    "banking": 0, 
    "bike_stands": 30, 
    "bonus": 0, 
    "contract_name": "Dublin", 
    "lat": "53.330362", 
    "lng": "-6.265163", 
    "name": "PORTOBELLO HARBOUR", 
    "station": 34
  }, 
  {
    "address": "Smithfield", 
    "banking": 0, 
    "bike_stands": 30, 
    "bonus": 0, 
    "contract_name": "Dublin", 
    "lat": "53.347692", 
    "lng": "-6.278214", 
    "name": "SMITHFIELD", 
    "station": 35
  }, 
  {
    "address": "St. Stephen's Green East", 
    "banking": 1, 
    "bike_stands": 40, 
    "bonus": 0, 
    "contract_name": "Dublin", 
    "lat": "53.337824", 
    "lng": "-6.256035", 
    "name": "ST. STEPHEN'S GREEN EAST", 
    "station": 36
  }, 
  {
    "address": "St. Stephen's Green South", 
    "banking": 1, 
    "bike_stands": 30, 
    "bonus": 0, 
    "contract_name": "Dublin", 
    "lat": "53.337494", 
    "lng": "-6.261990", 
    "name": "ST. STEPHEN'S GREEN SOUTH", 
    "station": 37
  }, 
  {
    "address": "Talbot Street", 
    "banking": 0, 
    "bike_stands": 40, 
    "bonus": 0, 
    "contract_name": "Dublin", 
    "lat": "53.350974", 
    "lng": "-6.252940", 
    "name": "TALBOT STREET", 
    "station": 38
  }, 
  {
    "address": "Wilton Terrace", 
    "banking": 1, 
    "bike_stands": 20, 
    "bonus": 0, 
    "contract_name": "Dublin", 
    "lat": "53.332383", 
    "lng": "-6.252717", 
    "name": "WILTON TERRACE", 
    "station": 39
  }, 
  {
    "address": "Jervis Street", 
    "banking": 1, 
    "bike_stands": 21, 
    "bonus": 0, 
    "contract_name": "Dublin", 
    "lat": "53.348300", 
    "lng": "-6.266651", 
    "name": "JERVIS STREET", 
    "station": 40
  }, 
  {
    "address": "Harcourt Terrace", 
    "banking": 0, 
    "bike_stands": 20, 
    "bonus": 0, 
    "contract_name": "Dublin", 
    "lat": "53.332763", 
    "lng": "-6.257942", 
    "name": "HARCOURT TERRACE", 
    "station": 41
  }, 
  {
    "address": "Smithfield North", 
    "banking": 1, 
    "bike_stands": 30, 
    "bonus": 0, 
    "contract_name": "Dublin", 
    "lat": "53.349562", 
    "lng": "-6.278198", 
    "name": "SMITHFIELD NORTH", 
    "station": 42
  }, 
  {
    "address": "Portobello Road", 
    "banking": 1, 
    "bike_stands": 30, 
    "bonus": 0, 
    "contract_name": "Dublin", 
    "lat": "53.330091", 
    "lng": "-6.268044", 
    "name": "PORTOBELLO ROAD", 
    "station": 43
  }, 
  {
    "address": "Upper Sherrard Street", 
    "banking": 0, 
    "bike_stands": 30, 
    "bonus": 0, 
    "contract_name": "Dublin", 
    "lat": "53.358437", 
    "lng": "-6.260641", 
    "name": "UPPER SHERRARD STREET", 
    "station": 44
  }, 
  {
    "address": "Deverell Place", 
    "banking": 0, 
    "bike_stands": 30, 
    "bonus": 0, 
    "contract_name": "Dublin", 
    "lat": "53.351464", 
    "lng": "-6.255265", 
    "name": "DEVERELL PLACE", 
    "station": 45
  }, 
  {
    "address": "Strand Street Great", 
    "banking": 1, 
    "bike_stands": 35, 
    "bonus": 0, 
    "contract_name": "Dublin", 
    "lat": "53.347082", 
    "lng": "-6.264192", 
    "name": "STRAND STREET GREAT", 
    "station": 46
  }, 
  {
    "address": "Herbert Street", 
    "banking": 0, 
    "bike_stands": 40, 
    "bonus": 0, 
    "contract_name": "Dublin", 
    "lat": "53.335742", 
    "lng": "-6.245510", 
    "name": "HERBERT STREET", 
    "station": 47
  }, 
  {
    "address": "Excise Walk", 
    "banking": 0, 
    "bike_stands": 40, 
    "bonus": 0, 
    "contract_name": "Dublin", 
    "lat": "53.347777", 
    "lng": "-6.244239", 
    "name": "EXCISE WALK", 
    "station": 48
  }, 
  {
    "address": "Guild Street", 
    "banking": 0, 
    "bike_stands": 40, 
    "bonus": 0, 
    "contract_name": "Dublin", 
    "lat": "53.347932", 
    "lng": "-6.240928", 
    "name": "GUILD STREET", 
    "station": 49
  }, 
  {
    "address": "York Street West", 
    "banking": 0, 
    "bike_stands": 40, 
    "bonus": 0, 
    "contract_name": "Dublin", 
    "lat": "53.339334", 
    "lng": "-6.264699", 
    "name": "YORK STREET WEST", 
    "station": 51
  }, 
  {
    "address": "York Street East", 
    "banking": 0, 
    "bike_stands": 32, 
    "bonus": 0, 
    "contract_name": "Dublin", 
    "lat": "53.338755", 
    "lng": "-6.262003", 
    "name": "YORK STREET EAST", 
    "station": 52
  }, 
  {
    "address": "Newman House", 
    "banking": 0, 
    "bike_stands": 40, 
    "bonus": 0, 
    "contract_name": "Dublin", 
    "lat": "53.337132", 
    "lng": "-6.260590", 
    "name": "NEWMAN HOUSE", 
    "station": 53
  }, 
  {
    "address": "Clonmel Street", 
    "banking": 0, 
    "bike_stands": 33, 
    "bonus": 0, 
    "contract_name": "Dublin", 
    "lat": "53.336021", 
    "lng": "-6.262980", 
    "name": "CLONMEL STREET", 
    "station": 54
  }, 
  {
    "address": "Hatch Street", 
    "banking": 0, 
    "bike_stands": 36, 
    "bonus": 0, 
    "contract_name": "Dublin", 
    "lat": "53.334030", 
    "lng": "-6.260714", 
    "name": "HATCH STREET", 
    "station": 55
  }, 
  {
    "address": "Mount Street Lower", 
    "banking": 0, 
    "bike_stands": 40, 
    "bonus": 0, 
    "contract_name": "Dublin", 
    "lat": "53.337960", 
    "lng": "-6.241530", 
    "name": "MOUNT STREET LOWER", 
    "station": 56
  }, 
  {
    "address": "Grattan Street", 
    "banking": 0, 
    "bike_stands": 23, 
    "bonus": 0, 
    "contract_name": "Dublin", 
    "lat": "53.339629", 
    "lng": "-6.243778", 
    "name": "GRATTAN STREET", 
    "station": 57
  }, 
  {
    "address": "Sir Patrick's Dun", 
    "banking": 1, 
    "bike_stands": 40, 
    "bonus": 0, 
    "contract_name": "Dublin", 
    "lat": "53.339218", 
    "lng": "-6.240642", 
    "name": "SIR PATRICK DUN'S", 
    "station": 58
  }, 
  {
    "address": "Denmark Street Great", 
    "banking": 0, 
    "bike_stands": 20, 
    "bonus": 0, 
    "contract_name": "Dublin", 
    "lat": "53.355610", 
    "lng": "-6.261397", 
    "name": "DENMARK STREET GREAT", 
    "station": 59
  }, 
  {
    "address": "North Circular Road", 
    "banking": 1, 
    "bike_stands": 30, 
    "bonus": 0, 
    "contract_name": "Dublin", 
    "lat": "53.359624", 
    "lng": "-6.260348", 
    "name": "NORTH CIRCULAR ROAD", 
    "station": 60
  }, 
  {
    "address": "Hardwicke Place", 
    "banking": 1, 
    "bike_stands": 25, 
    "bonus": 0, 
    "contract_name": "Dublin", 
    "lat": "53.357043", 
    "lng": "-6.263232", 
    "name": "HARDWICKE PLACE", 
    "station": 61
  }, 
  {
    "address": "Lime Street", 
    "banking": 0, 
    "bike_stands": 40, 
    "bonus": 0, 
    "contract_name": "Dublin", 
    "lat": "53.346026", 
    "lng": "-6.243576", 
    "name": "LIME STREET", 
    "station": 62
  }, 
  {
    "address": "Fenian Street", 
    "banking": 0, 
    "bike_stands": 35, 
    "bonus": 0, 
    "contract_name": "Dublin", 
    "lat": "53.341428", 
    "lng": "-6.246720", 
    "name": "FENIAN STREET", 
    "station": 63
  }, 
  {
    "address": "Sandwith Street", 
    "banking": 1, 
    "bike_stands": 40, 
    "bonus": 0, 
    "contract_name": "Dublin", 
    "lat": "53.345203", 
    "lng": "-6.247163", 
    "name": "SANDWITH STREET", 
    "station": 64
  }, 
  {
    "address": "Convention Centre", 
    "banking": 1, 
    "bike_stands": 40, 
    "bonus": 0, 
    "contract_name": "Dublin", 
    "lat": "53.347440", 
    "lng": "-6.238523", 
    "name": "CONVENTION CENTRE", 
    "station": 65
  }, 
  {
    "address": "New Central Bank", 
    "banking": 0, 
    "bike_stands": 40, 
    "bonus": 0, 
    "contract_name": "Dublin", 
    "lat": "53.347122", 
    "lng": "-6.234749", 
    "name": "NEW CENTRAL BANK", 
    "station": 66
  }, 
  {
    "address": "The Point", 
    "banking": 1, 
    "bike_stands": 40, 
    "bonus": 0, 
    "contract_name": "Dublin", 
    "lat": "53.346867", 
    "lng": "-6.230852", 
    "name": "THE POINT", 
    "station": 67
  }, 
  {
    "address": "Hanover Quay", 
    "banking": 1, 
    "bike_stands": 40, 
    "bonus": 0, 
    "contract_name": "Dublin", 
    "lat": "53.344115", 
    "lng": "-6.237153", 
    "name": "HANOVER QUAY", 
    "station": 68
  }, 
  {
    "address": "Grand Canal Dock", 
    "banking": 0, 
    "bike_stands": 40, 
    "bonus": 0, 
    "contract_name": "Dublin", 
    "lat": "53.342638", 
    "lng": "-6.238695", 
    "name": "GRAND CANAL DOCK", 
    "station": 69
  }, 
  {
    "address": "Barrow Street", 
    "banking": 1, 
    "bike_stands": 40, 
    "bonus": 0, 
    "contract_name": "Dublin", 
    "lat": "53.341655", 
    "lng": "-6.236198", 
    "name": "BARROW STREET", 
    "station": 70
  }, 
  {
    "address": "Kevin Street", 
    "banking": 1, 
    "bike_stands": 40, 
    "bonus": 0, 
    "contract_name": "Dublin", 
    "lat": "53.337757", 
    "lng": "-6.267699", 
    "name": "KEVIN STREET", 
    "station": 71
  }, 
  {
    "address": "John Street West", 
    "banking": 0, 
    "bike_stands": 31, 
    "bonus": 0, 
    "contract_name": "Dublin", 
    "lat": "53.343105", 
    "lng": "-6.277167", 
    "name": "JOHN STREET WEST", 
    "station": 72
  }, 
  {
    "address": "Francis Street", 
    "banking": 1, 
    "bike_stands": 30, 
    "bonus": 0, 
    "contract_name": "Dublin", 
    "lat": "53.342081", 
    "lng": "-6.275233", 
    "name": "FRANCIS STREET", 
    "station": 73
  }, 
  {
    "address": "Oliver Bond Street", 
    "banking": 0, 
    "bike_stands": 30, 
    "bonus": 0, 
    "contract_name": "Dublin", 
    "lat": "53.343893", 
    "lng": "-6.280531", 
    "name": "OLIVER BOND STREET", 
    "station": 74
  }, 
  {
    "address": "James Street", 
    "banking": 1, 
    "bike_stands": 40, 
    "bonus": 0, 
    "contract_name": "Dublin", 
    "lat": "53.343456", 
    "lng": "-6.287409", 
    "name": "JAMES STREET", 
    "station": 75
  }, 
  {
    "address": "Market Street South", 
    "banking": 0, 
    "bike_stands": 38, 
    "bonus": 0, 
    "contract_name": "Dublin", 
    "lat": "53.342296", 
    "lng": "-6.287661", 
    "name": "MARKET STREET SOUTH", 
    "station": 76
  }, 
  {
    "address": "Wolfe Tone Street", 
    "banking": 0, 
    "bike_stands": 29, 
    "bonus": 0, 
    "contract_name": "Dublin", 
    "lat": "53.348875", 
    "lng": "-6.267459", 
    "name": "WOLFE TONE STREET", 
    "station": 77
  }, 
  {
    "address": "Mater Hospital", 
    "banking": 0, 
    "bike_stands": 40, 
    "bonus": 0, 
    "contract_name": "Dublin", 
    "lat": "53.359967", 
    "lng": "-6.264828", 
    "name": "MATER HOSPITAL", 
    "station": 78
  }, 
  {
    "address": "Eccles Street East", 
    "banking": 0, 
    "bike_stands": 27, 
    "bonus": 0, 
    "contract_name": "Dublin", 
    "lat": "53.358115", 
    "lng": "-6.265601", 
    "name": "ECCLES STREET EAST", 
    "station": 79
  }, 
  {
    "address": "St James Hospital (Luas)", 
    "banking": 0, 
    "bike_stands": 40, 
    "bonus": 0, 
    "contract_name": "Dublin", 
    "lat": "53.341359", 
    "lng": "-6.292951", 
    "name": "ST JAMES HOSPITAL (LUAS)", 
    "station": 80
  }, 
  {
    "address": "St. James Hospital (Central)", 
    "banking": 0, 
    "bike_stands": 40, 
    "bonus": 0, 
    "contract_name": "Dublin", 
    "lat": "53.339983", 
    "lng": "-6.295594", 
    "name": "ST. JAMES HOSPITAL (CENTRAL)", 
    "station": 81
  }, 
  {
    "address": "Mount Brown", 
    "banking": 0, 
    "bike_stands": 22, 
    "bonus": 0, 
    "contract_name": "Dublin", 
    "lat": "53.341645", 
    "lng": "-6.297190", 
    "name": "MOUNT BROWN", 
    "station": 82
  }, 
  {
    "address": "Emmet Road", 
    "banking": 0, 
    "bike_stands": 40, 
    "bonus": 0, 
    "contract_name": "Dublin", 
    "lat": "53.340714", 
    "lng": "-6.308191", 
    "name": "EMMET ROAD", 
    "station": 83
  }, 
  {
    "address": "Brookfield Road", 
    "banking": 0, 
    "bike_stands": 30, 
    "bonus": 0, 
    "contract_name": "Dublin", 
    "lat": "53.339005", 
    "lng": "-6.300217", 
    "name": "BROOKFIELD ROAD", 
    "station": 84
  }, 
  {
    "address": "Rothe Abbey", 
    "banking": 1, 
    "bike_stands": 35, 
    "bonus": 0, 
    "contract_name": "Dublin", 
    "lat": "53.338776", 
    "lng": "-6.303950", 
    "name": "ROTHE ABBEY", 
    "station": 85
  }, 
  {
    "address": "Parkgate Street", 
    "banking": 1, 
    "bike_stands": 38, 
    "bonus": 0, 
    "contract_name": "Dublin", 
    "lat": "53.347972", 
    "lng": "-6.291804", 
    "name": "PARKGATE STREET", 
    "station": 86
  }, 
  {
    "address": "Collins Barracks Museum", 
    "banking": 1, 
    "bike_stands": 38, 
    "bonus": 0, 
    "contract_name": "Dublin", 
    "lat": "53.347477", 
    "lng": "-6.285250", 
    "name": "COLLINS BARRACKS MUSEUM", 
    "station": 87
  }, 
  {
    "address": "Blackhall Place", 
    "banking": 0, 
    "bike_stands": 30, 
    "bonus": 0, 
    "contract_name": "Dublin", 
    "lat": "53.348800", 
    "lng": "-6.281637", 
    "name": "BLACKHALL PLACE", 
    "station": 88
  }, 
  {
    "address": "Fitzwilliam Square East", 
    "banking": 1, 
    "bike_stands": 40, 
    "bonus": 0, 
    "contract_name": "Dublin", 
    "lat": "53.335211", 
    "lng": "-6.250900", 
    "name": "FITZWILLIAM SQUARE EAST", 
    "station": 89
  }, 
  {
    "address": "Benson Street", 
    "banking": 0, 
    "bike_stands": 40, 
    "bonus": 0, 
    "contract_name": "Dublin", 
    "lat": "53.344153", 
    "lng": "-6.233451", 
    "name": "BENSON STREET", 
    "station": 90
  }, 
  {
    "address": "South Dock Road", 
    "banking": 0, 
    "bike_stands": 30, 
    "bonus": 0, 
    "contract_name": "Dublin", 
    "lat": "53.341833", 
    "lng": "-6.231291", 
    "name": "SOUTH DOCK ROAD", 
    "station": 91
  }, 
  {
    "address": "Heuston Bridge (North)", 
    "banking": 0, 
    "bike_stands": 40, 
    "bonus": 0, 
    "contract_name": "Dublin", 
    "lat": "53.347802", 
    "lng": "-6.292432", 
    "name": "HEUSTON BRIDGE (NORTH)", 
    "station": 92
  }, 
  {
    "address": "Heuston Station (Central)", 
    "banking": 0, 
    "bike_stands": 40, 
    "bonus": 0, 
    "contract_name": "Dublin", 
    "lat": "53.346603", 
    "lng": "-6.296924", 
    "name": "HEUSTON STATION (CENTRAL)", 
    "station": 93
  }, 
  {
    "address": "Heuston Station (Car Park)", 
    "banking": 0, 
    "bike_stands": 40, 
    "bonus": 0, 
    "contract_name": "Dublin", 
    "lat": "53.346985", 
    "lng": "-6.297804", 
    "name": "HEUSTON STATION (CAR PARK)", 
    "station": 94
  }, 
  {
    "address": "Royal Hospital", 
    "banking": 1, 
    "bike_stands": 40, 
    "bonus": 0, 
    "contract_name": "Dublin", 
    "lat": "53.343897", 
    "lng": "-6.297060", 
    "name": "ROYAL HOSPITAL", 
    "station": 95
  }, 
  {
    "address": "Kilmainham Lane", 
    "banking": 0, 
    "bike_stands": 30, 
    "bonus": 0, 
    "contract_name": "Dublin", 
    "lat": "53.341805", 
    "lng": "-6.305085", 
    "name": "KILMAINHAM LANE", 
    "station": 96
  }, 
  {
    "address": "Kilmainham Gaol", 
    "banking": 1, 
    "bike_stands": 40, 
    "bonus": 0, 
    "contract_name": "Dublin", 
    "lat": "53.342113", 
    "lng": "-6.310015", 
    "name": "KILMAINHAM GAOL", 
    "station": 97
  }, 
  {
    "address": "Frederick Street South", 
    "banking": 1, 
    "bike_stands": 30, 
    "bonus": 0, 
    "contract_name": "Dublin", 
    "lat": "53.341515", 
    "lng": "-6.256853", 
    "name": "FREDERICK STREET SOUTH", 
    "station": 98
  }, 
  {
    "address": "City Quay", 
    "banking": 0, 
    "bike_stands": 30, 
    "bonus": 0, 
    "contract_name": "Dublin", 
    "lat": "53.346637", 
    "lng": "-6.246154", 
    "name": "CITY QUAY", 
    "station": 99
  }, 
  {
    "address": "Heuston Bridge (South)", 
    "banking": 0, 
    "bike_stands": 25, 
    "bonus": 0, 
    "contract_name": "Dublin", 
    "lat": "53.347106", 
    "lng": "-6.292041", 
    "name": "HEUSTON BRIDGE (SOUTH)", 
    "station": 100
  }, 
  {
    "address": "King Street North", 
    "banking": 0, 
    "bike_stands": 30, 
    "bonus": 0, 
    "contract_name": "Dublin", 
    "lat": "53.350291", 
    "lng": "-6.273507", 
    "name": "KING STREET NORTH", 
    "station": 101
  }, 
  {
    "address": "Western Way", 
    "banking": 0, 
    "bike_stands": 40, 
    "bonus": 0, 
    "contract_name": "Dublin", 
    "lat": "53.354929", 
    "lng": "-6.269425", 
    "name": "WESTERN WAY", 
    "station": 102
  }
]